{"type":"FeatureCollection", "features": [
{"type":"Feature","geometry":{"type":"Point","coordinates":[88.79747929999805,26.75635740029731,0]},"properties":{"name":"Gorumara National Park","styleUrl":"#m_ylw-pushpin","icon-scale":1.1,"icon-offset":[20,2],"icon-offset-units":["pixels","pixels"],"icon":"http://maps.google.com/mapfiles/kml/pushpin/ylw-pushpin.png"}},
{"type":"Feature","geometry":{"type":"Point","coordinates":[88.44923400036016,26.79192599987438,0]},"properties":{"name":"Bengal Safari ","styleUrl":"#m_ylw-pushpin","icon-scale":1.1,"icon-offset":[20,2],"icon-offset-units":["pixels","pixels"],"icon":"http://maps.google.com/mapfiles/kml/pushpin/ylw-pushpin.png"}},
{"type":"Feature","geometry":{"type":"Point","coordinates":[88.8551019001561,26.87464239988228,0]},"properties":{"name":"Chapramari Wildlife Sanctuary ","styleUrl":"#m_ylw-pushpin","icon-scale":1.1,"icon-offset":[20,2],"icon-offset-units":["pixels","pixels"],"icon":"http://maps.google.com/mapfiles/kml/pushpin/ylw-pushpin.png"}},
{"type":"Feature","geometry":{"type":"Point","coordinates":[89.02643137961304,26.64540308434423,0]},"properties":{"name":"SONAKHALI FOREST","styleUrl":"#m_ylw-pushpin","icon-scale":1.1,"icon-offset":[20,2],"icon-offset-units":["pixels","pixels"],"icon":"http://maps.google.com/mapfiles/kml/pushpin/ylw-pushpin.png"}},
{"type":"Feature","geometry":{"type":"Point","coordinates":[88.73126519999694,26.52286809993709,0]},"properties":{"name":"Teesta Udyan","styleUrl":"#m_ylw-pushpin","icon-scale":1.1,"icon-offset":[20,2],"icon-offset-units":["pixels","pixels"],"icon":"http://maps.google.com/mapfiles/kml/pushpin/ylw-pushpin.png"}}
]}