{"type":"FeatureCollection", "features": [
{"type":"Feature","geometry":{"type":"Point","coordinates":[89.44530679975307,26.32014709993476,0]},"properties":{"name":"Madan mohan bari","styleUrl":"#m_ylw-pushpin","icon-scale":1.1,"icon-offset":[20,2],"icon-offset-units":["pixels","pixels"],"icon":"http://maps.google.com/mapfiles/kml/pushpin/ylw-pushpin.png"}},
{"type":"Feature","geometry":{"type":"Point","coordinates":[89.49785302706964,26.39846836206441,0]},"properties":{"name":"Baneswar Shiva Temple","styleUrl":"#m_ylw-pushpin","icon-scale":1.1,"icon-offset":[20,2],"icon-offset-units":["pixels","pixels"],"icon":"http://maps.google.com/mapfiles/kml/pushpin/ylw-pushpin.png"}},
{"type":"Feature","geometry":{"type":"Point","coordinates":[89.45105159997463,26.33669429984769,0]},"properties":{"name":"Ekramul Haque Masjid and Madrasa ","styleUrl":"#m_ylw-pushpin","icon-scale":1.1,"icon-offset":[20,2],"icon-offset-units":["pixels","pixels"],"icon":"http://maps.google.com/mapfiles/kml/pushpin/ylw-pushpin.png"}},
{"type":"Feature","geometry":{"type":"Point","coordinates":[89.44794550011268,26.33141489990589,0]},"properties":{"name":"Piajbari Mosque\n","styleUrl":"#m_ylw-pushpin","icon-scale":1.1,"icon-offset":[20,2],"icon-offset-units":["pixels","pixels"],"icon":"http://maps.google.com/mapfiles/kml/pushpin/ylw-pushpin.png"}},
{"type":"Feature","geometry":{"type":"Point","coordinates":[89.47022396244263,26.34739579821843,0]},"properties":{"name":"Our Lady Of Grace Church ","styleUrl":"#m_ylw-pushpin","icon-scale":1.1,"icon-offset":[20,2],"icon-offset-units":["pixels","pixels"],"icon":"http://maps.google.com/mapfiles/kml/pushpin/ylw-pushpin.png"}},
{"type":"Feature","geometry":{"type":"Point","coordinates":[89.4503024000829,26.32874120014383,0]},"properties":{"name":"51 Feet Hanuman Ji","styleUrl":"#m_ylw-pushpin","icon-scale":1.1,"icon-offset":[20,2],"icon-offset-units":["pixels","pixels"],"icon":"http://maps.google.com/mapfiles/kml/pushpin/ylw-pushpin.png"}},
{"type":"Feature","geometry":{"type":"Point","coordinates":[89.44757480009338,26.31796740003654,0]},"properties":{"name":"Rash Mela Ground","styleUrl":"#m_ylw-pushpin","icon-scale":1.1,"icon-offset":[20,2],"icon-offset-units":["pixels","pixels"],"icon":"http://maps.google.com/mapfiles/kml/pushpin/ylw-pushpin.png"}},
{"type":"Feature","geometry":{"type":"Point","coordinates":[89.47268209994073,26.32432150032461,0]},"properties":{"name":"ISKCON COOCHBEHAR","styleUrl":"#m_ylw-pushpin","icon-scale":1.1,"icon-offset":[20,2],"icon-offset-units":["pixels","pixels"],"icon":"http://maps.google.com/mapfiles/kml/pushpin/ylw-pushpin.png"}}
]}